$GPRMC,030006.000,A,2445.1961,S,05145.7086,W,0.00,,261013,,,A*79
$GPRMC,030036.000,A,2445.1961,S,05145.7086,W,0.00,,261013,,,A*7A
$GPRMC,030106.000,A,2445.1961,S,05145.7086,W,0.00,,261013,,,A*78
$GPRMC,030134.000,A,2445.1961,S,05145.7086,W,0.00,,261013,,,A*79
$GPRMC,030242.000,A,2445.2017,S,05145.7011,W,0.00,,261013,,,A*7E
$GPRMC,030312.000,A,2445.2017,S,05145.7011,W,0.00,,261013,,,A*7A
$GPRMC,030342.000,A,2445.2017,S,05145.7011,W,0.00,,261013,,,A*7F
$GPRMC,030412.000,A,2445.2017,S,05145.7011,W,0.00,,261013,,,A*7D
$GPRMC,030442.000,A,2445.2017,S,05145.7011,W,0.00,,261013,,,A*78
$GPRMC,030512.000,A,2445.2017,S,05145.7011,W,0.00,,261013,,,A*7C
$GPRMC,030553.000,A,2445.2048,S,05145.6983,W,0.00,,261013,,,A*70
$GPRMC,030623.000,A,2445.2048,S,05145.6983,W,0.00,,261013,,,A*74
$GPRMC,030653.000,A,2445.2048,S,05145.6983,W,0.00,,261013,,,A*73
$GPRMC,030723.000,A,2445.2048,S,05145.6983,W,0.00,,261013,,,A*75
$GPRMC,030753.000,A,2445.2048,S,05145.6983,W,0.00,,261013,,,A*72
$GPRMC,030901.000,A,2445.2004,S,05145.6974,W,0.00,,261013,,,A*7B
$GPRMC,030931.000,A,2445.2004,S,05145.6974,W,0.00,,261013,,,A*78
$GPRMC,031001.000,A,2445.2004,S,05145.6974,W,0.00,,261013,,,A*73
$GPRMC,031031.000,A,2445.2004,S,05145.6974,W,0.00,,261013,,,A*70
$GPRMC,031101.000,A,2445.2004,S,05145.6974,W,0.00,,261013,,,A*72
$GPRMC,031131.000,A,2445.2004,S,05145.6974,W,0.00,,261013,,,A*71
$GPRMC,031210.000,A,2445.2010,S,05145.6972,W,0.00,,261013,,,A*72
$GPRMC,031240.000,A,2445.2010,S,05145.6972,W,0.00,,261013,,,A*77
$GPRMC,031310.000,A,2445.2010,S,05145.6972,W,0.00,,261013,,,A*73
$GPRMC,031338.000,A,2445.2010,S,05145.6972,W,0.00,,261013,,,A*79
$GPRMC,031408.000,A,2445.2010,S,05145.6972,W,0.00,,261013,,,A*7D
$GPRMC,031438.000,A,2445.2010,S,05145.6972,W,0.00,,261013,,,A*7E
$GPRMC,031518.000,A,2445.1980,S,05145.6962,W,0.00,,261013,,,A*7F
$GPRMC,031548.000,A,2445.1980,S,05145.6962,W,0.00,,261013,,,A*7A
$GPRMC,031618.000,A,2445.1980,S,05145.6962,W,0.00,,261013,,,A*7C
$GPRMC,031648.000,A,2445.1980,S,05145.6962,W,0.00,,261013,,,A*79
$GPRMC,031718.000,A,2445.1980,S,05145.6962,W,0.00,,261013,,,A*7D
$GPRMC,031748.000,A,2445.1980,S,05145.6962,W,0.00,,261013,,,A*78
$GPRMC,031827.000,A,2445.1955,S,05145.6953,W,0.00,,261013,,,A*74
$GPRMC,031857.000,A,2445.1955,S,05145.6953,W,0.00,,261013,,,A*73
$GPRMC,031927.000,A,2445.1955,S,05145.6953,W,0.00,,261013,,,A*75
$GPRMC,031957.000,A,2445.1955,S,05145.6953,W,0.00,,261013,,,A*72
$GPRMC,032027.000,A,2445.1955,S,05145.6953,W,0.00,,261013,,,A*7F
$GPRMC,032057.000,A,2445.1955,S,05145.6953,W,0.00,,261013,,,A*78
$GPRMC,032135.000,A,2445.2039,S,05145.6938,W,0.00,,261013,,,A*70
$GPRMC,032205.000,A,2445.2039,S,05145.6938,W,0.00,,261013,,,A*70
$GPRMC,032235.000,A,2445.2039,S,05145.6938,W,0.00,,261013,,,A*73
$GPRMC,032305.000,A,2445.2039,S,05145.6938,W,0.00,,261013,,,A*71
$GPRMC,032335.000,A,2445.2039,S,05145.6938,W,0.00,,261013,,,A*72
$GPRMC,032405.000,A,2445.2039,S,05145.6938,W,0.00,,261013,,,A*76
$GPRMC,032444.000,A,2445.2000,S,05145.6969,W,0.00,,261013,,,A*7D
$GPRMC,032514.000,A,2445.2000,S,05145.6969,W,0.00,,261013,,,A*79
$GPRMC,032544.000,A,2445.2000,S,05145.6969,W,0.00,,261013,,,A*7C
$GPRMC,032612.000,A,2445.2000,S,05145.6969,W,0.00,,261013,,,A*7C
$GPRMC,032642.000,A,2445.2000,S,05145.6969,W,0.00,,261013,,,A*79
$GPRMC,032712.000,A,2445.2000,S,05145.6969,W,0.00,,261013,,,A*7D
$GPRMC,032750.000,A,2445.1993,S,05145.6962,W,0.00,,261013,,,A*70
$GPRMC,032820.000,A,2445.1993,S,05145.6962,W,0.00,,261013,,,A*78
$GPRMC,032850.000,A,2445.1993,S,05145.6962,W,0.00,,261013,,,A*7F
$GPRMC,032920.000,A,2445.1993,S,05145.6962,W,0.00,,261013,,,A*79
$GPRMC,032950.000,A,2445.1993,S,05145.6962,W,0.00,,261013,,,A*7E
$GPRMC,033020.000,A,2445.1993,S,05145.6962,W,0.00,,261013,,,A*71
$GPRMC,033059.000,A,2445.1971,S,05145.6920,W,0.00,,261013,,,A*75
$GPRMC,033129.000,A,2445.1971,S,05145.6920,W,0.00,,261013,,,A*73
$GPRMC,033159.000,A,2445.1971,S,05145.6920,W,0.00,,261013,,,A*74
$GPRMC,033229.000,A,2445.1971,S,05145.6920,W,0.00,,261013,,,A*70
$GPRMC,033259.000,A,2445.1971,S,05145.6920,W,0.00,,261013,,,A*77
$GPRMC,033329.000,A,2445.1971,S,05145.6920,W,0.00,,261013,,,A*71
$GPRMC,033408.000,A,2445.2012,S,05145.6989,W,0.00,,261013,,,A*79
$GPRMC,033438.000,A,2445.2012,S,05145.6989,W,0.00,,261013,,,A*7A
$GPRMC,033515.000,A,2445.2008,S,05145.6973,W,0.00,,261013,,,A*7A
$GPRMC,033545.000,A,2445.2008,S,05145.6973,W,0.00,,261013,,,A*7F
$GPRMC,033615.000,A,2445.2008,S,05145.6973,W,0.00,,261013,,,A*79
$GPRMC,033645.000,A,2445.2008,S,05145.6973,W,0.00,,261013,,,A*7C
$GPRMC,033715.000,A,2445.2008,S,05145.6973,W,0.00,,261013,,,A*78
$GPRMC,033745.000,A,2445.2008,S,05145.6973,W,0.00,,261013,,,A*7D
$GPRMC,033823.000,A,2445.2005,S,05145.6936,W,0.00,,261013,,,A*7E
$GPRMC,033851.000,A,2445.2005,S,05145.6936,W,0.00,,261013,,,A*7B
$GPRMC,033921.000,A,2445.2005,S,05145.6936,W,0.00,,261013,,,A*7D
$GPRMC,033951.000,A,2445.2005,S,05145.6936,W,0.00,,261013,,,A*7A
$GPRMC,034021.000,A,2445.2005,S,05145.6936,W,0.00,,261013,,,A*73
$GPRMC,034051.000,A,2445.2005,S,05145.6936,W,0.00,,261013,,,A*74
$GPRMC,034130.000,A,2445.2079,S,05145.7011,W,0.00,,261013,,,A*74
$GPRMC,034200.000,A,2445.2079,S,05145.7011,W,0.00,,261013,,,A*74
$GPRMC,034230.000,A,2445.2079,S,05145.7011,W,0.00,,261013,,,A*77
$GPRMC,034300.000,A,2445.2079,S,05145.7011,W,0.00,,261013,,,A*75
$GPRMC,034330.000,A,2445.2079,S,05145.7011,W,0.00,,261013,,,A*76
$GPRMC,034400.000,A,2445.2079,S,05145.7011,W,0.00,,261013,,,A*72
$GPRMC,034441.000,A,2445.1985,S,05145.6980,W,0.00,,261013,,,A*7E
$GPRMC,034511.000,A,2445.1985,S,05145.6980,W,0.00,,261013,,,A*7A
$GPRMC,034541.000,A,2445.1985,S,05145.6980,W,0.00,,261013,,,A*7F
$GPRMC,034611.000,A,2445.1985,S,05145.6980,W,0.00,,261013,,,A*79
$GPRMC,034641.000,A,2445.1985,S,05145.6980,W,0.00,,261013,,,A*7C
$GPRMC,034749.000,A,2445.2009,S,05145.7044,W,0.00,,261013,,,A*7B
$GPRMC,034819.000,A,2445.2009,S,05145.7044,W,0.00,,261013,,,A*71
$GPRMC,034849.000,A,2445.2009,S,05145.7044,W,0.00,,261013,,,A*74
$GPRMC,034919.000,A,2445.2009,S,05145.7044,W,0.00,,261013,,,A*70
$GPRMC,034949.000,A,2445.2009,S,05145.7044,W,0.00,,261013,,,A*75
$GPRMC,035019.000,A,2445.2009,S,05145.7044,W,0.00,,261013,,,A*78
$GPRMC,035056.000,A,2445.2022,S,05145.6988,W,0.00,,261013,,,A*72
$GPRMC,035124.000,A,2445.2022,S,05145.6988,W,0.00,,261013,,,A*76
$GPRMC,035154.000,A,2445.2022,S,05145.6988,W,0.00,,261013,,,A*71
$GPRMC,035224.000,A,2445.2022,S,05145.6988,W,0.00,,261013,,,A*75
$GPRMC,035254.000,A,2445.2022,S,05145.6988,W,0.00,,261013,,,A*72
$GPRMC,035324.000,A,2445.2022,S,05145.6988,W,0.00,,261013,,,A*74
$GPRMC,035406.000,A,2445.2003,S,05145.6944,W,0.00,,261013,,,A*70
$GPRMC,035436.000,A,2445.2003,S,05145.6944,W,0.00,,261013,,,A*73
$GPRMC,035506.000,A,2445.2003,S,05145.6944,W,0.00,,261013,,,A*71
$GPRMC,035536.000,A,2445.2003,S,05145.6944,W,0.00,,261013,,,A*72
$GPRMC,035606.000,A,2445.2003,S,05145.6944,W,0.00,,261013,,,A*72
$GPRMC,035636.000,A,2445.2003,S,05145.6944,W,0.00,,261013,,,A*71
$GPRMC,035715.000,A,2445.2006,S,05145.7027,W,0.00,,261013,,,A*79
$GPRMC,035745.000,A,2445.2006,S,05145.7027,W,0.00,,261013,,,A*7C
$GPRMC,035815.000,A,2445.2006,S,05145.7027,W,0.00,,261013,,,A*76
$GPRMC,035845.000,A,2445.2006,S,05145.7027,W,0.00,,261013,,,A*73
$GPRMC,035915.000,A,2445.2006,S,05145.7027,W,0.00,,261013,,,A*77
$GPRMC,035945.000,A,2445.2006,S,05145.7027,W,0.00,,261013,,,A*72
$GPRMC,040023.000,A,2445.1945,S,05145.7176,W,0.00,,261013,,,A*71
$GPRMC,040053.000,A,2445.1945,S,05145.7176,W,0.00,,261013,,,A*76
$GPRMC,040123.000,A,2445.1945,S,05145.7176,W,0.00,,261013,,,A*70
$GPRMC,040153.000,A,2445.1945,S,05145.7176,W,0.00,,261013,,,A*77
$GPRMC,040223.000,A,2445.1945,S,05145.7176,W,0.00,,261013,,,A*73
$GPRMC,040253.000,A,2445.1945,S,05145.7176,W,0.00,,261013,,,A*74
$GPRMC,040330.000,A,2445.2049,S,05145.6902,W,0.00,,261013,,,A*7C
$GPRMC,040358.000,A,2445.2049,S,05145.6902,W,0.00,,261013,,,A*72
$GPRMC,040428.000,A,2445.2049,S,05145.6902,W,0.00,,261013,,,A*72
$GPRMC,040458.000,A,2445.2049,S,05145.6902,W,0.00,,261013,,,A*75
$GPRMC,040528.000,A,2445.2049,S,05145.6902,W,0.00,,261013,,,A*73
$GPRMC,040558.000,A,2445.2049,S,05145.6902,W,0.00,,261013,,,A*74
$GPRMC,040638.000,A,2445.1992,S,05145.6943,W,0.00,,261013,,,A*78
$GPRMC,040708.000,A,2445.1992,S,05145.6943,W,0.00,,261013,,,A*7A
$GPRMC,040738.000,A,2445.1992,S,05145.6943,W,0.00,,261013,,,A*79
$GPRMC,040815.000,A,2445.1994,S,05145.6942,W,0.00,,261013,,,A*7E
$GPRMC,040845.000,A,2445.1994,S,05145.6942,W,0.00,,261013,,,A*7B
$GPRMC,040915.000,A,2445.1994,S,05145.6942,W,0.00,,261013,,,A*7F
$GPRMC,040945.000,A,2445.1994,S,05145.6942,W,0.00,,261013,,,A*7A
$GPRMC,041015.000,A,2445.1994,S,05145.6942,W,0.00,,261013,,,A*77
$GPRMC,041045.000,A,2445.1994,S,05145.6942,W,0.00,,261013,,,A*72
$GPRMC,041125.000,A,2445.2052,S,05145.6951,W,0.00,,261013,,,A*77
$GPRMC,041155.000,A,2445.2052,S,05145.6951,W,0.00,,261013,,,A*70
$GPRMC,041225.000,A,2445.2052,S,05145.6951,W,0.00,,261013,,,A*74
$GPRMC,041255.000,A,2445.2052,S,05145.6951,W,0.00,,261013,,,A*73
$GPRMC,041325.000,A,2445.2052,S,05145.6951,W,0.00,,261013,,,A*75
$GPRMC,041355.000,A,2445.2052,S,05145.6951,W,0.00,,261013,,,A*72
$GPRMC,041434.000,A,2445.2091,S,05145.6941,W,0.00,,261013,,,A*7C
$GPRMC,041504.000,A,2445.2091,S,05145.6941,W,0.00,,261013,,,A*7E
$GPRMC,041534.000,A,2445.2091,S,05145.6941,W,0.00,,261013,,,A*7D
$GPRMC,041604.000,A,2445.2091,S,05145.6941,W,0.00,,261013,,,A*7D
$GPRMC,041632.000,A,2445.2091,S,05145.6941,W,0.00,,261013,,,A*78
$GPRMC,041702.000,A,2445.2091,S,05145.6941,W,0.00,,261013,,,A*7A
$GPRMC,041739.000,A,2445.1918,S,05145.7043,W,0.00,,261013,,,A*73
$GPRMC,041809.000,A,2445.1918,S,05145.7043,W,0.00,,261013,,,A*7F
$GPRMC,041839.000,A,2445.1918,S,05145.7043,W,0.00,,261013,,,A*7C
$GPRMC,041909.000,A,2445.1918,S,05145.7043,W,0.00,,261013,,,A*7E
$GPRMC,041939.000,A,2445.1918,S,05145.7043,W,0.00,,261013,,,A*7D
$GPRMC,042009.000,A,2445.1918,S,05145.7043,W,0.00,,261013,,,A*74
$GPRMC,042051.000,A,2445.2014,S,05145.7081,W,0.00,,261013,,,A*71
$GPRMC,042121.000,A,2445.2014,S,05145.7081,W,0.00,,261013,,,A*77
$GPRMC,042151.000,A,2445.2014,S,05145.7081,W,0.00,,261013,,,A*70
$GPRMC,042221.000,A,2445.2014,S,05145.7081,W,0.00,,261013,,,A*74
$GPRMC,042251.000,A,2445.2014,S,05145.7081,W,0.00,,261013,,,A*73
$GPRMC,042321.000,A,2445.2014,S,05145.7081,W,0.00,,261013,,,A*75
$GPRMC,042400.000,A,2445.2045,S,05145.6933,W,0.00,,261013,,,A*74
$GPRMC,042430.000,A,2445.2045,S,05145.6933,W,0.00,,261013,,,A*77
$GPRMC,042500.000,A,2445.2045,S,05145.6933,W,0.00,,261013,,,A*75
$GPRMC,042530.000,A,2445.2045,S,05145.6933,W,0.00,,261013,,,D*73
$GPRMC,042600.000,A,2445.2045,S,05145.6933,W,0.00,,261013,,,A*76
$GPRMC,042630.000,A,2445.2045,S,05145.6933,W,0.00,,261013,,,A*75
$GPRMC,042708.000,A,2445.2038,S,05145.6944,W,0.00,,261013,,,A*75
$GPRMC,042738.000,A,2445.2038,S,05145.6944,W,0.00,,261013,,,A*76
$GPRMC,042808.000,A,2445.2038,S,05145.6944,W,0.00,,261013,,,A*7A
$GPRMC,042838.000,A,2445.2038,S,05145.6944,W,0.00,,261013,,,D*7C
$GPRMC,042906.000,A,2445.2038,S,05145.6944,W,0.00,,261013,,,A*75
$GPRMC,042936.000,A,2445.2038,S,05145.6944,W,0.00,,261013,,,A*76
$GPRMC,043015.000,A,2445.1989,S,05145.6994,W,0.00,,261013,,,A*72
$GPRMC,043045.000,A,2445.1989,S,05145.6994,W,0.00,,261013,,,A*77
$GPRMC,043115.000,A,2445.1989,S,05145.6994,W,0.00,,261013,,,A*73
$GPRMC,043145.000,A,2445.1989,S,05145.6994,W,0.00,,261013,,,A*76
$GPRMC,043215.000,A,2445.1989,S,05145.6994,W,0.00,,261013,,,A*70
$GPRMC,043245.000,A,2445.1989,S,05145.6994,W,0.00,,261013,,,A*75
$GPRMC,043321.000,A,2445.2000,S,05145.6982,W,0.00,,261013,,,A*7A
$GPRMC,043351.000,A,2445.2000,S,05145.6982,W,0.00,,261013,,,A*7D
$GPRMC,043421.000,A,2445.2000,S,05145.6982,W,0.00,,261013,,,A*7D
$GPRMC,043451.000,A,2445.2000,S,05145.6982,W,0.00,,261013,,,A*7A
$GPRMC,043521.000,A,2445.2000,S,05145.6982,W,0.00,,261013,,,A*7C
$GPRMC,043551.000,A,2445.2000,S,05145.6982,W,0.00,,261013,,,A*7B
$GPRMC,043632.000,A,2445.1978,S,05145.6934,W,0.00,,261013,,,A*75
$GPRMC,043702.000,A,2445.1978,S,05145.6934,W,0.00,,261013,,,A*77
$GPRMC,043732.000,A,2445.1978,S,05145.6934,W,0.00,,261013,,,A*74
$GPRMC,043802.000,A,2445.1978,S,05145.6934,W,0.00,,261013,,,A*78
$GPRMC,043832.000,A,2445.1978,S,05145.6934,W,0.00,,261013,,,A*7B
$GPRMC,043902.000,A,2445.1978,S,05145.6934,W,0.00,,261013,,,A*79
$GPRMC,043940.000,A,2445.2005,S,05145.6945,W,0.00,,261013,,,A*79
$GPRMC,044010.000,A,2445.2005,S,05145.6945,W,0.00,,261013,,,A*72
$GPRMC,044040.000,A,2445.2005,S,05145.6945,W,0.00,,261013,,,A*77
$GPRMC,044108.000,A,2445.2005,S,05145.6945,W,0.00,,261013,,,A*7A
$GPRMC,044138.000,A,2445.2005,S,05145.6945,W,0.00,,261013,,,A*79
$GPRMC,044208.000,A,2445.2005,S,05145.6945,W,0.00,,261013,,,A*79
$GPRMC,044249.000,A,2445.1994,S,05145.6932,W,0.00,,261013,,,D*7B
$GPRMC,044319.000,A,2445.1994,S,05145.6932,W,0.00,,261013,,,D*7F
$GPRMC,044349.000,A,2445.1994,S,05145.6932,W,0.00,,261013,,,D*7A
$GPRMC,044419.000,A,2445.1994,S,05145.6932,W,0.00,,261013,,,D*78
$GPRMC,044449.000,A,2445.1994,S,05145.6932,W,0.00,,261013,,,D*7D
$GPRMC,044519.000,A,2445.1994,S,05145.6932,W,0.00,,261013,,,D*79
$GPRMC,044558.000,A,2445.2031,S,05145.7005,W,0.00,,261013,,,A*70
$GPRMC,044628.000,A,2445.2031,S,05145.7005,W,0.00,,261013,,,A*74
$GPRMC,044658.000,A,2445.2031,S,05145.7005,W,0.00,,261013,,,A*73
$GPRMC,044728.000,A,2445.2031,S,05145.7005,W,0.00,,261013,,,A*75
$GPRMC,044758.000,A,2445.2031,S,05145.7005,W,0.00,,261013,,,A*72
$GPRMC,044908.000,A,2445.2080,S,05145.7000,W,0.00,,261013,,,A*76
$GPRMC,044938.000,A,2445.2080,S,05145.7000,W,0.00,,261013,,,A*75
$GPRMC,045008.000,A,2445.2080,S,05145.7000,W,0.00,,261013,,,A*7E
$GPRMC,045038.000,A,2445.2080,S,05145.7000,W,0.00,,261013,,,A*7D
$GPRMC,045108.000,A,2445.2080,S,05145.7000,W,0.00,,261013,,,A*7F
$GPRMC,045138.000,A,2445.2080,S,05145.7000,W,0.00,,261013,,,A*7C
$GPRMC,045217.000,A,2445.2007,S,05145.6981,W,0.00,,261013,,,A*7C
$GPRMC,045247.000,A,2445.2007,S,05145.6981,W,0.00,,261013,,,A*79
$GPRMC,045317.000,A,2445.2007,S,05145.6981,W,0.00,,261013,,,A*7D
$GPRMC,045345.000,A,2445.2007,S,05145.6981,W,0.00,,261013,,,D*7F
$GPRMC,045415.000,A,2445.2007,S,05145.6981,W,0.00,,261013,,,D*7D
$GPRMC,045445.000,A,2445.2007,S,05145.6981,W,0.00,,261013,,,A*7D
$GPRMC,045525.000,A,2445.1977,S,05145.6964,W,0.00,,261013,,,A*7C
$GPRMC,045555.000,A,2445.1977,S,05145.6964,W,0.00,,261013,,,A*7B
$GPRMC,045625.000,A,2445.1977,S,05145.6964,W,0.00,,261013,,,A*7F
$GPRMC,045655.000,A,2445.1977,S,05145.6964,W,0.00,,261013,,,D*7D
$GPRMC,045725.000,A,2445.1977,S,05145.6964,W,0.00,,261013,,,D*7B
$GPRMC,045755.000,A,2445.1977,S,05145.6964,W,0.00,,261013,,,D*7C
$GPRMC,045832.000,A,2445.1959,S,05145.6908,W,0.00,,261013,,,A*71
$GPRMC,045902.000,A,2445.1959,S,05145.6908,W,0.00,,261013,,,A*73
$GPRMC,045932.000,A,2445.1959,S,05145.6908,W,0.00,,261013,,,A*70
$GPRMC,050002.000,A,2445.1959,S,05145.6908,W,0.00,,261013,,,D*7B
$GPRMC,050032.000,A,2445.1959,S,05145.6908,W,0.00,,261013,,,D*78
$GPRMC,050102.000,A,2445.1959,S,05145.6908,W,0.00,,261013,,,D*7A
$GPRMC,050140.000,A,2445.1946,S,05145.6938,W,0.00,,261013,,,A*74
$GPRMC,050210.000,A,2445.1946,S,05145.6938,W,0.00,,261013,,,A*72
$GPRMC,050240.000,A,2445.1946,S,05145.6938,W,0.00,,261013,,,A*77
$GPRMC,050310.000,A,2445.1946,S,05145.6938,W,0.00,,261013,,,A*73
$GPRMC,050340.000,A,2445.1946,S,05145.6938,W,0.00,,261013,,,A*76
$GPRMC,050410.000,A,2445.1946,S,05145.6938,W,0.00,,261013,,,A*74
$GPRMC,050449.000,A,2445.2192,S,05145.7008,W,0.00,,261013,,,A*71
$GPRMC,050519.000,A,2445.2192,S,05145.7008,W,0.00,,261013,,,A*75
$GPRMC,050549.000,A,2445.2192,S,05145.7008,W,0.00,,261013,,,D*75
$GPRMC,050617.000,A,2445.2192,S,05145.7008,W,0.00,,261013,,,D*7D
$GPRMC,050647.000,A,2445.2192,S,05145.7008,W,0.00,,261013,,,A*7D
$GPRMC,050717.000,A,2445.2192,S,05145.7008,W,0.00,,261013,,,A*79
$GPRMC,050759.000,A,2445.1939,S,05145.6936,W,0.00,,261013,,,A*7C
$GPRMC,050829.000,A,2445.1939,S,05145.6936,W,0.00,,261013,,,A*74
$GPRMC,050859.000,A,2445.1939,S,05145.6936,W,0.00,,261013,,,A*73
$GPRMC,050929.000,A,2445.1939,S,05145.6936,W,0.00,,261013,,,A*75
$GPRMC,050959.000,A,2445.1939,S,05145.6936,W,0.00,,261013,,,A*72
$GPRMC,051029.000,A,2445.1939,S,05145.6936,W,0.00,,261013,,,A*7D
$GPRMC,051106.000,A,2445.1945,S,05145.6912,W,0.00,,261013,,,A*7C
$GPRMC,051136.000,A,2445.1945,S,05145.6912,W,0.00,,261013,,,A*7F
$GPRMC,051206.000,A,2445.1945,S,05145.6912,W,0.00,,261013,,,A*7F
$GPRMC,051236.000,A,2445.1945,S,05145.6912,W,0.00,,261013,,,A*7C
$GPRMC,051306.000,A,2445.1945,S,05145.6912,W,0.00,,261013,,,A*7E
$GPRMC,051336.000,A,2445.1945,S,05145.6912,W,0.00,,261013,,,A*7D
$GPRMC,051417.000,A,2445.2079,S,05145.6974,W,0.00,,261013,,,A*7C
$GPRMC,051447.000,A,2445.2079,S,05145.6974,W,0.00,,261013,,,A*79
$GPRMC,051517.000,A,2445.2079,S,05145.6974,W,0.00,,261013,,,A*7D
$GPRMC,051547.000,A,2445.2079,S,05145.6974,W,0.00,,261013,,,A*78
$GPRMC,051617.000,A,2445.2079,S,05145.6974,W,0.00,,261013,,,A*7E
$GPRMC,051725.000,A,2445.2135,S,05145.7060,W,0.00,,261013,,,A*7A
$GPRMC,051755.000,A,2445.2135,S,05145.7060,W,0.00,,261013,,,A*7D
$GPRMC,051825.000,A,2445.2135,S,05145.7060,W,0.00,,261013,,,A*75
$GPRMC,051853.000,A,2445.2135,S,05145.7060,W,0.00,,261013,,,A*74
$GPRMC,051923.000,A,2445.2135,S,05145.7060,W,0.00,,261013,,,D*77
$GPRMC,051953.000,A,2445.2135,S,05145.7060,W,0.00,,261013,,,D*70
$GPRMC,052030.000,A,2445.2022,S,05145.6979,W,0.00,,261013,,,A*7D
$GPRMC,052100.000,A,2445.2022,S,05145.6979,W,0.00,,261013,,,A*7F
$GPRMC,052130.000,A,2445.2022,S,05145.6979,W,0.00,,261013,,,A*7C
$GPRMC,052200.000,A,2445.2022,S,05145.6979,W,0.00,,261013,,,A*7C
$GPRMC,052230.000,A,2445.2022,S,05145.6979,W,0.00,,261013,,,A*7F
$GPRMC,052300.000,A,2445.2022,S,05145.6979,W,0.00,,261013,,,A*7D
$GPRMC,052340.000,A,2445.2070,S,05145.7043,W,0.00,,261013,,,A*7F
$GPRMC,052410.000,A,2445.2070,S,05145.7043,W,0.00,,261013,,,D*78
$GPRMC,052440.000,A,2445.2070,S,05145.7043,W,0.00,,261013,,,D*7D
$GPRMC,052510.000,A,2445.2070,S,05145.7043,W,0.00,,261013,,,D*79
$GPRMC,052540.000,A,2445.2070,S,05145.7043,W,0.00,,261013,,,D*7C
$GPRMC,052610.000,A,2445.2070,S,05145.7043,W,0.00,,261013,,,D*7A
$GPRMC,052649.000,A,2445.2027,S,05145.7061,W,0.00,,261013,,,A*71
$GPRMC,052719.000,A,2445.2027,S,05145.7061,W,0.00,,261013,,,A*75
$GPRMC,052749.000,A,2445.2027,S,05145.7061,W,0.00,,261013,,,A*70
$GPRMC,052819.000,A,2445.2027,S,05145.7061,W,0.00,,261013,,,A*7A
$GPRMC,052849.000,A,2445.2027,S,05145.7061,W,0.00,,261013,,,A*7F
$GPRMC,052919.000,A,2445.2027,S,05145.7061,W,0.00,,261013,,,D*7E
$GPRMC,052957.000,A,2445.1994,S,05145.6979,W,0.00,,261013,,,A*72
$GPRMC,053027.000,A,2445.1994,S,05145.6979,W,0.00,,261013,,,D*78
$GPRMC,053057.000,A,2445.1994,S,05145.6979,W,0.00,,261013,,,D*7F
$GPRMC,053125.000,A,2445.1994,S,05145.6979,W,0.00,,261013,,,D*7B
$GPRMC,053155.000,A,2445.1994,S,05145.6979,W,0.00,,261013,,,D*7C
$GPRMC,053225.000,A,2445.1994,S,05145.6979,W,0.00,,261013,,,D*78
$GPRMC,053304.000,A,2445.1962,S,05145.7027,W,0.00,,261013,,,A*75
$GPRMC,053334.000,A,2445.1962,S,05145.7027,W,0.00,,261013,,,A*76
$GPRMC,053404.000,A,2445.1962,S,05145.7027,W,0.00,,261013,,,A*72
$GPRMC,053434.000,A,2445.1962,S,05145.7027,W,0.00,,261013,,,D*74
$GPRMC,053504.000,A,2445.1962,S,05145.7027,W,0.00,,261013,,,D*76
$GPRMC,053534.000,A,2445.1962,S,05145.7027,W,0.00,,261013,,,A*70
$GPRMC,053612.000,A,2445.1958,S,05145.6959,W,0.00,,261013,,,A*7F
$GPRMC,053642.000,A,2445.1958,S,05145.6959,W,0.00,,261013,,,A*7A
$GPRMC,053712.000,A,2445.1958,S,05145.6959,W,0.00,,261013,,,A*7E
$GPRMC,053742.000,A,2445.1958,S,05145.6959,W,0.00,,261013,,,A*7B
$GPRMC,053812.000,A,2445.1958,S,05145.6959,W,0.00,,261013,,,A*71
$GPRMC,053842.000,A,2445.1958,S,05145.6959,W,0.00,,261013,,,A*74
$GPRMC,053923.000,A,2445.2014,S,05145.6984,W,0.00,,261013,,,A*70
$GPRMC,053953.000,A,2445.2014,S,05145.6984,W,0.00,,261013,,,D*72
$GPRMC,054023.000,A,2445.2014,S,05145.6984,W,0.00,,261013,,,D*7B
$GPRMC,054053.000,A,2445.2014,S,05145.6984,W,0.00,,261013,,,D*7C
$GPRMC,054123.000,A,2445.2014,S,05145.6984,W,0.00,,261013,,,D*7A
$GPRMC,054153.000,A,2445.2014,S,05145.6984,W,0.00,,261013,,,D*7D
$GPRMC,054232.000,A,2445.1985,S,05145.6994,W,0.00,,261013,,,A*7F
$GPRMC,054302.000,A,2445.1985,S,05145.6994,W,0.00,,261013,,,A*7D
$GPRMC,054332.000,A,2445.1985,S,05145.6994,W,0.00,,261013,,,A*7E
$GPRMC,054400.000,A,2445.1985,S,05145.6994,W,0.00,,261013,,,A*78
$GPRMC,054430.000,A,2445.1985,S,05145.6994,W,0.00,,261013,,,A*7B
$GPRMC,054500.000,A,2445.1985,S,05145.6994,W,0.00,,261013,,,A*79
$GPRMC,054538.000,A,2445.2054,S,05145.6935,W,0.00,,261013,,,A*7F
$GPRMC,054608.000,A,2445.2054,S,05145.6935,W,0.00,,261013,,,A*7F
$GPRMC,054638.000,A,2445.2054,S,05145.6935,W,0.00,,261013,,,A*7C
$GPRMC,054708.000,A,2445.2054,S,05145.6935,W,0.00,,261013,,,A*7E
$GPRMC,054738.000,A,2445.2054,S,05145.6935,W,0.00,,261013,,,A*7D
$GPRMC,054808.000,A,2445.2054,S,05145.6935,W,0.00,,261013,,,A*71
$GPRMC,054849.000,A,2445.2017,S,05145.6967,W,0.00,,261013,,,A*74
$GPRMC,054919.000,A,2445.2017,S,05145.6967,W,0.00,,261013,,,A*70
$GPRMC,054949.000,A,2445.2017,S,05145.6967,W,0.00,,261013,,,D*70
$GPRMC,055019.000,A,2445.2017,S,05145.6967,W,0.00,,261013,,,D*7D
$GPRMC,055049.000,A,2445.2017,S,05145.6967,W,0.00,,261013,,,A*7D
$GPRMC,055119.000,A,2445.2017,S,05145.6967,W,0.00,,261013,,,A*79
$GPRMC,055157.000,A,2445.1963,S,05145.6939,W,0.00,,261013,,,A*71
$GPRMC,055227.000,A,2445.1963,S,05145.6939,W,0.00,,261013,,,A*75
$GPRMC,055257.000,A,2445.1963,S,05145.6939,W,0.00,,261013,,,A*72
$GPRMC,055327.000,A,2445.1963,S,05145.6939,W,0.00,,261013,,,A*74
$GPRMC,055357.000,A,2445.1963,S,05145.6939,W,0.00,,261013,,,A*73
$GPRMC,055427.000,A,2445.1963,S,05145.6939,W,0.00,,261013,,,A*73
$GPRMC,055506.000,A,2445.2042,S,05145.6982,W,0.00,,261013,,,A*78
$GPRMC,055536.000,A,2445.2042,S,05145.6982,W,0.00,,261013,,,A*7B
$GPRMC,055606.000,A,2445.2042,S,05145.6982,W,0.00,,261013,,,A*7B
$GPRMC,055634.000,A,2445.2042,S,05145.6982,W,0.00,,261013,,,A*7A
$GPRMC,055704.000,A,2445.2042,S,05145.6982,W,0.00,,261013,,,A*78
$GPRMC,055734.000,A,2445.2042,S,05145.6982,W,0.00,,261013,,,A*7B
$GPRMC,055814.000,A,2445.2012,S,05145.6976,W,0.00,,261013,,,A*78
$GPRMC,055844.000,A,2445.2012,S,05145.6976,W,0.00,,261013,,,A*7D
$GPRMC,055914.000,A,2445.2012,S,05145.6976,W,0.00,,261013,,,A*79
$GPRMC,055944.000,A,2445.2012,S,05145.6976,W,0.00,,261013,,,A*7C
$GPRMC,060014.000,A,2445.2012,S,05145.6976,W,0.00,,261013,,,A*76
$GPRMC,060044.000,A,2445.2012,S,05145.6976,W,0.00,,261013,,,A*73
$GPRMC,060123.000,A,2445.2003,S,05145.6973,W,0.00,,261013,,,A*76
$GPRMC,060153.000,A,2445.2003,S,05145.6973,W,0.00,,261013,,,A*71
$GPRMC,060223.000,A,2445.2003,S,05145.6973,W,0.00,,261013,,,A*75
$GPRMC,060253.000,A,2445.2003,S,05145.6973,W,0.00,,261013,,,A*72
$GPRMC,060323.000,A,2445.2003,S,05145.6973,W,0.00,,261013,,,A*74
$GPRMC,060353.000,A,2445.2003,S,05145.6973,W,0.00,,261013,,,A*73
$GPRMC,060434.000,A,2445.2012,S,05145.6952,W,0.00,,261013,,,A*76
$GPRMC,060504.000,A,2445.2012,S,05145.6952,W,0.00,,261013,,,D*71
$GPRMC,060534.000,A,2445.2012,S,05145.6952,W,0.00,,261013,,,D*72
$GPRMC,060604.000,A,2445.2012,S,05145.6952,W,0.00,,261013,,,D*72
$GPRMC,060634.000,A,2445.2012,S,05145.6952,W,0.00,,261013,,,A*74
$GPRMC,060740.000,A,2445.2123,S,05145.6999,W,0.00,,261013,,,A*72
$GPRMC,060810.000,A,2445.2123,S,05145.6999,W,0.00,,261013,,,A*78
$GPRMC,060838.000,A,2445.2123,S,05145.6999,W,0.00,,261013,,,A*72
$GPRMC,060908.000,A,2445.2123,S,05145.6999,W,0.00,,261013,,,A*70
$GPRMC,060938.000,A,2445.2123,S,05145.6999,W,0.00,,261013,,,A*73
$GPRMC,061008.000,A,2445.2123,S,05145.6999,W,0.00,,261013,,,A*78
$GPRMC,061049.000,A,2445.1984,S,05145.6969,W,0.00,,261013,,,A*74
$GPRMC,061119.000,A,2445.1984,S,05145.6969,W,0.00,,261013,,,A*70
$GPRMC,061149.000,A,2445.1984,S,05145.6969,W,0.00,,261013,,,A*75
$GPRMC,061219.000,A,2445.1984,S,05145.6969,W,0.00,,261013,,,A*73
$GPRMC,061249.000,A,2445.1984,S,05145.6969,W,0.00,,261013,,,A*76
$GPRMC,061319.000,A,2445.1984,S,05145.6969,W,0.00,,261013,,,D*77
$GPRMC,061357.000,A,2445.1993,S,05145.6968,W,0.00,,261013,,,A*7F
$GPRMC,061427.000,A,2445.1993,S,05145.6968,W,0.00,,261013,,,D*7A
$GPRMC,061457.000,A,2445.1993,S,05145.6968,W,0.00,,261013,,,D*7D
$GPRMC,061527.000,A,2445.1993,S,05145.6968,W,0.00,,261013,,,D*7B
$GPRMC,061557.000,A,2445.1993,S,05145.6968,W,0.00,,261013,,,D*7C
$GPRMC,061627.000,A,2445.1993,S,05145.6968,W,0.00,,261013,,,D*78
$GPRMC,061704.000,A,2445.1956,S,05145.7003,W,0.00,,261013,,,A*71
$GPRMC,061734.000,A,2445.1956,S,05145.7003,W,0.00,,261013,,,A*72
$GPRMC,061804.000,A,2445.1956,S,05145.7003,W,0.00,,261013,,,A*7E
$GPRMC,061909.000,A,2445.1961,S,05145.6951,W,0.00,,261013,,,A*79
$GPRMC,061939.000,A,2445.1961,S,05145.6951,W,0.00,,261013,,,A*7A
$GPRMC,062009.000,A,2445.1961,S,05145.6951,W,0.00,,261013,,,A*73
$GPRMC,062039.000,A,2445.1961,S,05145.6951,W,0.00,,261013,,,A*70
$GPRMC,062109.000,A,2445.1961,S,05145.6951,W,0.00,,261013,,,A*72
$GPRMC,062139.000,A,2445.1961,S,05145.6951,W,0.00,,261013,,,A*71
$GPRMC,062217.000,A,2445.1959,S,05145.6926,W,0.00,,261013,,,A*75
$GPRMC,062247.000,A,2445.1959,S,05145.6926,W,0.00,,261013,,,A*70
$GPRMC,062317.000,A,2445.1959,S,05145.6926,W,0.00,,261013,,,A*74
$GPRMC,062347.000,A,2445.1959,S,05145.6926,W,0.00,,261013,,,A*71
$GPRMC,062417.000,A,2445.1959,S,05145.6926,W,0.00,,261013,,,A*73
$GPRMC,062447.000,A,2445.1959,S,05145.6926,W,0.00,,261013,,,A*76
$GPRMC,062526.000,A,2445.1963,S,05145.7030,W,0.00,,261013,,,A*76
$GPRMC,062556.000,A,2445.1963,S,05145.7030,W,0.00,,261013,,,A*71
$GPRMC,062626.000,A,2445.1963,S,05145.7030,W,0.00,,261013,,,A*75
$GPRMC,062656.000,A,2445.1963,S,05145.7030,W,0.00,,261013,,,A*72
$GPRMC,062726.000,A,2445.1963,S,05145.7030,W,0.00,,261013,,,A*74
$GPRMC,062756.000,A,2445.1963,S,05145.7030,W,0.00,,261013,,,A*73
$GPRMC,062837.000,A,2445.1954,S,05145.7006,W,0.00,,261013,,,A*7A
$GPRMC,062907.000,A,2445.1954,S,05145.7006,W,0.00,,261013,,,A*78
$GPRMC,062937.000,A,2445.1954,S,05145.7006,W,0.00,,261013,,,A*7B
$GPRMC,063007.000,A,2445.1954,S,05145.7006,W,0.00,,261013,,,A*70
$GPRMC,063037.000,A,2445.1954,S,05145.7006,W,0.00,,261013,,,A*73
$GPRMC,063107.000,A,2445.1954,S,05145.7006,W,0.00,,261013,,,A*71
$GPRMC,063145.000,A,2445.1971,S,05145.6989,W,0.00,,261013,,,A*7F
$GPRMC,063215.000,A,2445.1971,S,05145.6989,W,0.00,,261013,,,A*79
$GPRMC,063245.000,A,2445.1971,S,05145.6989,W,0.00,,261013,,,A*7C
$GPRMC,063315.000,A,2445.1971,S,05145.6989,W,0.00,,261013,,,A*78
$GPRMC,063343.000,A,2445.1971,S,05145.6989,W,0.00,,261013,,,A*7B
$GPRMC,063413.000,A,2445.1971,S,05145.6989,W,0.00,,261013,,,A*79
$GPRMC,063454.000,A,2445.1979,S,05145.6994,W,0.00,,261013,,,A*7E
$GPRMC,063524.000,A,2445.1979,S,05145.6994,W,0.00,,261013,,,A*78
$GPRMC,063554.000,A,2445.1979,S,05145.6994,W,0.00,,261013,,,D*7A
$GPRMC,063624.000,A,2445.1979,S,05145.6994,W,0.00,,261013,,,D*7E
$GPRMC,063654.000,A,2445.1979,S,05145.6994,W,0.00,,261013,,,D*79
$GPRMC,063724.000,A,2445.1979,S,05145.6994,W,0.00,,261013,,,D*7F
$GPRMC,063802.000,A,2445.2052,S,05145.6957,W,0.00,,261013,,,A*7D
$GPRMC,063832.000,A,2445.2052,S,05145.6957,W,0.00,,261013,,,A*7E
$GPRMC,063902.000,A,2445.2052,S,05145.6957,W,0.00,,261013,,,A*7C
$GPRMC,063932.000,A,2445.2052,S,05145.6957,W,0.00,,261013,,,A*7F
$GPRMC,064002.000,A,2445.2052,S,05145.6957,W,0.00,,261013,,,A*72
$GPRMC,064032.000,A,2445.2052,S,05145.6957,W,0.00,,261013,,,A*71
$GPRMC,064111.000,A,2445.2024,S,05145.6997,W,0.00,,261013,,,A*7C
$GPRMC,064141.000,A,2445.2024,S,05145.6997,W,0.00,,261013,,,A*79
$GPRMC,064211.000,A,2445.2024,S,05145.6997,W,0.00,,261013,,,D*7A
$GPRMC,064241.000,A,2445.2024,S,05145.6997,W,0.00,,261013,,,D*7F
$GPRMC,064311.000,A,2445.2024,S,05145.6997,W,0.00,,261013,,,D*7B
$GPRMC,064341.000,A,2445.2024,S,05145.6997,W,0.00,,261013,,,D*7E
$GPRMC,064421.000,A,2445.1962,S,05145.7013,W,0.00,,261013,,,A*76
$GPRMC,064451.000,A,2445.1962,S,05145.7013,W,0.00,,261013,,,A*71
$GPRMC,064521.000,A,2445.1962,S,05145.7013,W,0.00,,261013,,,A*77
$GPRMC,064551.000,A,2445.1962,S,05145.7013,W,0.00,,261013,,,A*70
$GPRMC,064619.000,A,2445.1962,S,05145.7013,W,0.00,,261013,,,A*7F
$GPRMC,064649.000,A,2445.1962,S,05145.7013,W,0.00,,261013,,,A*7A
$GPRMC,064728.000,A,2445.1953,S,05145.6893,W,0.00,,261013,,,A*7F
$GPRMC,064758.000,A,2445.1953,S,05145.6893,W,0.00,,261013,,,A*78
$GPRMC,064828.000,A,2445.1953,S,05145.6893,W,0.00,,261013,,,D*75
$GPRMC,064858.000,A,2445.1953,S,05145.6893,W,0.00,,261013,,,D*72
$GPRMC,064928.000,A,2445.1953,S,05145.6893,W,0.00,,261013,,,D*74
$GPRMC,064958.000,A,2445.1953,S,05145.6893,W,0.00,,261013,,,A*76
$GPRMC,065038.000,A,2445.2010,S,05145.6955,W,0.00,,261013,,,A*7E
$GPRMC,065108.000,A,2445.2010,S,05145.6955,W,0.00,,261013,,,A*7C
$GPRMC,065138.000,A,2445.2010,S,05145.6955,W,0.00,,261013,,,A*7F
$GPRMC,065208.000,A,2445.2010,S,05145.6955,W,0.00,,261013,,,A*7F
$GPRMC,065238.000,A,2445.2010,S,05145.6955,W,0.00,,261013,,,A*7C
$GPRMC,065308.000,A,2445.2010,S,05145.6955,W,0.00,,261013,,,A*7E
$GPRMC,065345.000,A,2445.2085,S,05145.6950,W,0.00,,261013,,,A*7E
$GPRMC,065415.000,A,2445.2085,S,05145.6950,W,0.00,,261013,,,A*7C
$GPRMC,065445.000,A,2445.2085,S,05145.6950,W,0.00,,261013,,,A*79
$GPRMC,065515.000,A,2445.2085,S,05145.6950,W,0.00,,261013,,,A*7D
$GPRMC,065545.000,A,2445.2085,S,05145.6950,W,0.00,,261013,,,A*78
$GPRMC,065615.000,A,2445.2085,S,05145.6950,W,0.00,,261013,,,A*7E
$GPRMC,065654.000,A,2445.2050,S,05145.6979,W,0.00,,261013,,,A*78
$GPRMC,065724.000,A,2445.2050,S,05145.6979,W,0.00,,261013,,,A*7E
$GPRMC,065754.000,A,2445.2050,S,05145.6979,W,0.00,,261013,,,A*79
$GPRMC,065824.000,A,2445.2050,S,05145.6979,W,0.00,,261013,,,A*71
$GPRMC,065852.000,A,2445.2050,S,05145.6979,W,0.00,,261013,,,A*70
$GPRMC,065922.000,A,2445.2050,S,05145.6979,W,0.00,,261013,,,A*76
$GPRMC,070002.000,A,2445.2101,S,05145.6925,W,0.00,,261013,,,A*75
$GPRMC,070032.000,A,2445.2101,S,05145.6925,W,0.00,,261013,,,A*76
$GPRMC,070102.000,A,2445.2101,S,05145.6925,W,0.00,,261013,,,A*74
$GPRMC,070132.000,A,2445.2101,S,05145.6925,W,0.00,,261013,,,A*77
$GPRMC,070202.000,A,2445.2101,S,05145.6925,W,0.00,,261013,,,A*77
$GPRMC,070232.000,A,2445.2101,S,05145.6925,W,0.00,,261013,,,A*74
$GPRMC,070311.000,A,2445.2024,S,05145.6982,W,0.00,,261013,,,A*7F
$GPRMC,070341.000,A,2445.2024,S,05145.6982,W,0.00,,261013,,,A*7A
$GPRMC,070411.000,A,2445.2024,S,05145.6982,W,0.00,,261013,,,A*78
$GPRMC,070441.000,A,2445.2024,S,05145.6982,W,0.00,,261013,,,A*7D
$GPRMC,070511.000,A,2445.2024,S,05145.6982,W,0.00,,261013,,,D*7C
$GPRMC,070541.000,A,2445.2024,S,05145.6982,W,0.00,,261013,,,A*7C
$GPRMC,070621.000,A,2445.2061,S,05145.6961,W,0.00,,261013,,,A*75
$GPRMC,070651.000,A,2445.2061,S,05145.6961,W,0.00,,261013,,,A*72
$GPRMC,070721.000,A,2445.2061,S,05145.6961,W,0.00,,261013,,,A*74
$GPRMC,070751.000,A,2445.2061,S,05145.6961,W,0.00,,261013,,,A*73
$GPRMC,070821.000,A,2445.2061,S,05145.6961,W,0.00,,261013,,,A*7B
$GPRMC,070851.000,A,2445.2061,S,05145.6961,W,0.00,,261013,,,A*7C
$GPRMC,070928.000,A,2445.2003,S,05145.6968,W,0.00,,261013,,,A*7E
$GPRMC,070958.000,A,2445.2003,S,05145.6968,W,0.00,,261013,,,A*79
$GPRMC,071028.000,A,2445.2003,S,05145.6968,W,0.00,,261013,,,A*76
$GPRMC,071058.000,A,2445.2003,S,05145.6968,W,0.00,,261013,,,A*71
$GPRMC,071126.000,A,2445.2003,S,05145.6968,W,0.00,,261013,,,A*79
$GPRMC,071156.000,A,2445.2003,S,05145.6968,W,0.00,,261013,,,A*7E
$GPRMC,071237.000,A,2445.1997,S,05145.6944,W,0.00,,261013,,,A*73
$GPRMC,071307.000,A,2445.1997,S,05145.6944,W,0.00,,261013,,,A*71
$GPRMC,071337.000,A,2445.1997,S,05145.6944,W,0.00,,261013,,,A*72
$GPRMC,071407.000,A,2445.1997,S,05145.6944,W,0.00,,261013,,,A*76
$GPRMC,071437.000,A,2445.1997,S,05145.6944,W,0.00,,261013,,,A*75
$GPRMC,071507.000,A,2445.1997,S,05145.6944,W,0.00,,261013,,,A*77
$GPRMC,071547.000,A,2445.1999,S,05145.6964,W,0.00,,261013,,,A*7F
$GPRMC,071617.000,A,2445.1999,S,05145.6964,W,0.00,,261013,,,A*79
$GPRMC,071647.000,A,2445.1999,S,05145.6964,W,0.00,,261013,,,A*7C
$GPRMC,071717.000,A,2445.1999,S,05145.6964,W,0.00,,261013,,,A*78
$GPRMC,071747.000,A,2445.1999,S,05145.6964,W,0.00,,261013,,,A*7D
$GPRMC,071852.000,A,2445.2020,S,05145.6969,W,0.00,,261013,,,A*73
$GPRMC,071922.000,A,2445.2020,S,05145.6969,W,0.00,,261013,,,A*75
$GPRMC,071952.000,A,2445.2020,S,05145.6969,W,0.00,,261013,,,A*72
$GPRMC,072022.000,A,2445.2020,S,05145.6969,W,0.00,,261013,,,A*7F
$GPRMC,072052.000,A,2445.2020,S,05145.6969,W,0.00,,261013,,,A*78
$GPRMC,072122.000,A,2445.2020,S,05145.6969,W,0.00,,261013,,,A*7E
$GPRMC,072200.000,A,2445.1990,S,05145.6955,W,0.00,,261013,,,A*73
$GPRMC,072230.000,A,2445.1990,S,05145.6955,W,0.00,,261013,,,A*70
$GPRMC,072300.000,A,2445.1990,S,05145.6955,W,0.00,,261013,,,A*72
$GPRMC,072330.000,A,2445.1990,S,05145.6955,W,0.00,,261013,,,A*71
$GPRMC,072358.000,A,2445.1990,S,05145.6955,W,0.00,,261013,,,A*7F
$GPRMC,072428.000,A,2445.1990,S,05145.6955,W,0.00,,261013,,,A*7F
$GPRMC,072509.000,A,2445.2014,S,05145.6973,W,0.00,,261013,,,A*7F
$GPRMC,072539.000,A,2445.2014,S,05145.6973,W,0.00,,261013,,,A*7C
$GPRMC,072609.000,A,2445.2014,S,05145.6973,W,0.00,,261013,,,A*7C
$GPRMC,072639.000,A,2445.2014,S,05145.6973,W,0.00,,261013,,,A*7F
$GPRMC,072709.000,A,2445.2014,S,05145.6973,W,0.00,,261013,,,A*7D
$GPRMC,072739.000,A,2445.2014,S,05145.6973,W,0.00,,261013,,,A*7E
$GPRMC,072817.000,A,2445.1998,S,05145.6954,W,0.00,,261013,,,A*76
$GPRMC,072847.000,A,2445.1998,S,05145.6954,W,0.00,,261013,,,A*73
$GPRMC,072917.000,A,2445.1998,S,05145.6954,W,0.00,,261013,,,A*77
$GPRMC,072947.000,A,2445.1998,S,05145.6954,W,0.00,,261013,,,A*72
$GPRMC,073017.000,A,2445.1998,S,05145.6954,W,0.00,,261013,,,A*7F
$GPRMC,073047.000,A,2445.1998,S,05145.6954,W,0.00,,261013,,,A*7A
$GPRMC,073126.000,A,2445.2004,S,05145.6957,W,0.00,,261013,,,A*70
$GPRMC,073156.000,A,2445.2004,S,05145.6957,W,0.00,,261013,,,A*77
$GPRMC,073226.000,A,2445.2004,S,05145.6957,W,0.00,,261013,,,D*76
$GPRMC,073256.000,A,2445.2004,S,05145.6957,W,0.00,,261013,,,D*71
$GPRMC,073326.000,A,2445.2004,S,05145.6957,W,0.00,,261013,,,D*77
$GPRMC,073356.000,A,2445.2004,S,05145.6957,W,0.00,,261013,,,D*70
$GPRMC,073435.000,A,2445.1975,S,05145.6939,W,0.00,,261013,,,A*73
$GPRMC,073505.000,A,2445.1975,S,05145.6939,W,0.00,,261013,,,A*71
$GPRMC,073535.000,A,2445.1975,S,05145.6939,W,0.00,,261013,,,A*72
$GPRMC,073605.000,A,2445.1975,S,05145.6939,W,0.00,,261013,,,A*72
$GPRMC,073633.000,A,2445.1975,S,05145.6939,W,0.00,,261013,,,A*77
$GPRMC,073703.000,A,2445.1975,S,05145.6939,W,0.00,,261013,,,A*75
$GPRMC,073741.000,A,2445.1873,S,05145.6870,W,0.00,,261013,,,A*78
$GPRMC,073811.000,A,2445.1873,S,05145.6870,W,0.00,,261013,,,A*72
$GPRMC,073841.000,A,2445.1873,S,05145.6870,W,0.00,,261013,,,A*77
$GPRMC,073911.000,A,2445.1873,S,05145.6870,W,0.00,,261013,,,A*73
$GPRMC,073941.000,A,2445.1873,S,05145.6870,W,0.00,,261013,,,A*76
$GPRMC,074011.000,A,2445.1873,S,05145.6870,W,0.00,,261013,,,A*7D
$GPRMC,074050.000,A,2445.1993,S,05145.6950,W,0.00,,261013,,,A*74
$GPRMC,074120.000,A,2445.1993,S,05145.6950,W,0.00,,261013,,,A*72
$GPRMC,074150.000,A,2445.1993,S,05145.6950,W,0.00,,261013,,,A*75
$GPRMC,074220.000,A,2445.1993,S,05145.6950,W,0.00,,261013,,,A*71
$GPRMC,074250.000,A,2445.1993,S,05145.6950,W,0.00,,261013,,,A*76
$GPRMC,074320.000,A,2445.1993,S,05145.6950,W,0.00,,261013,,,A*70
$GPRMC,074402.000,A,2445.2052,S,05145.6977,W,0.00,,261013,,,A*75
$GPRMC,074432.000,A,2445.2052,S,05145.6977,W,0.00,,261013,,,A*76
$GPRMC,074502.000,A,2445.2052,S,05145.6977,W,0.00,,261013,,,A*74
$GPRMC,074532.000,A,2445.2052,S,05145.6977,W,0.00,,261013,,,A*77
$GPRMC,074602.000,A,2445.2052,S,05145.6977,W,0.00,,261013,,,A*77
$GPRMC,074632.000,A,2445.2052,S,05145.6977,W,0.00,,261013,,,A*74
$GPRMC,074709.000,A,2445.2037,S,05145.6979,W,0.00,,261013,,,A*70
$GPRMC,074739.000,A,2445.2037,S,05145.6979,W,0.00,,261013,,,A*73
$GPRMC,074809.000,A,2445.2037,S,05145.6979,W,0.00,,261013,,,A*7F
$GPRMC,074839.000,A,2445.2037,S,05145.6979,W,0.00,,261013,,,A*7C
$GPRMC,074907.000,A,2445.2037,S,05145.6979,W,0.00,,261013,,,D*75
$GPRMC,074937.000,A,2445.2037,S,05145.6979,W,0.00,,261013,,,D*76
$GPRMC,075017.000,A,2445.2036,S,05145.6945,W,0.00,,261013,,,A*77
$GPRMC,075047.000,A,2445.2036,S,05145.6945,W,0.00,,261013,,,A*72
$GPRMC,075117.000,A,2445.2036,S,05145.6945,W,0.00,,261013,,,A*76
$GPRMC,075147.000,A,2445.2036,S,05145.6945,W,0.00,,261013,,,A*73
$GPRMC,075217.000,A,2445.2036,S,05145.6945,W,0.00,,261013,,,A*75
$GPRMC,075247.000,A,2445.2036,S,05145.6945,W,0.00,,261013,,,A*70
$GPRMC,075324.000,A,2445.1983,S,05145.6963,W,0.00,,261013,,,A*74
$GPRMC,075354.000,A,2445.1983,S,05145.6963,W,0.00,,261013,,,A*73
$GPRMC,075424.000,A,2445.1983,S,05145.6963,W,0.00,,261013,,,A*73
$GPRMC,075454.000,A,2445.1983,S,05145.6963,W,0.00,,261013,,,A*74
$GPRMC,075524.000,A,2445.1983,S,05145.6963,W,0.00,,261013,,,A*72
$GPRMC,075554.000,A,2445.1983,S,05145.6963,W,0.00,,261013,,,A*75
$GPRMC,075636.000,A,2445.1997,S,05145.6930,W,0.00,,261013,,,A*71
$GPRMC,075706.000,A,2445.1997,S,05145.6930,W,0.00,,261013,,,A*73
$GPRMC,075736.000,A,2445.1997,S,05145.6930,W,0.00,,261013,,,A*70
$GPRMC,075806.000,A,2445.1997,S,05145.6930,W,0.00,,261013,,,A*7C
$GPRMC,075836.000,A,2445.1997,S,05145.6930,W,0.00,,261013,,,A*7F
$GPRMC,075906.000,A,2445.1997,S,05145.6930,W,0.00,,261013,,,A*7D
$GPRMC,075943.000,A,2445.1987,S,05145.6979,W,0.00,,261013,,,A*70
$GPRMC,080013.000,A,2445.1987,S,05145.6979,W,0.00,,261013,,,A*76
$GPRMC,080043.000,A,2445.1987,S,05145.6979,W,0.00,,261013,,,A*73
$GPRMC,080111.000,A,2445.1987,S,05145.6979,W,0.00,,261013,,,A*75
$GPRMC,080141.000,A,2445.1987,S,05145.6979,W,0.00,,261013,,,A*70
$GPRMC,080211.000,A,2445.1987,S,05145.6979,W,0.00,,261013,,,A*76
$GPRMC,080250.000,A,2445.1959,S,05145.7026,W,0.00,,261013,,,A*72
$GPRMC,080320.000,A,2445.1959,S,05145.7026,W,0.00,,261013,,,A*74
$GPRMC,080350.000,A,2445.1959,S,05145.7026,W,0.00,,261013,,,A*73
$GPRMC,080420.000,A,2445.1959,S,05145.7026,W,0.00,,261013,,,A*73
$GPRMC,080450.000,A,2445.1959,S,05145.7026,W,0.00,,261013,,,A*74
$GPRMC,080520.000,A,2445.1959,S,05145.7026,W,0.00,,261013,,,A*72
$GPRMC,080558.000,A,2445.2016,S,05145.6963,W,0.00,,261013,,,A*75
$GPRMC,080628.000,A,2445.2016,S,05145.6963,W,0.00,,261013,,,A*71
$GPRMC,080658.000,A,2445.2016,S,05145.6963,W,0.00,,261013,,,A*76
$GPRMC,080728.000,A,2445.2016,S,05145.6963,W,0.00,,261013,,,A*70
$GPRMC,080758.000,A,2445.2016,S,05145.6963,W,0.00,,261013,,,A*77
$GPRMC,080828.000,A,2445.2016,S,05145.6963,W,0.00,,261013,,,A*7F
$GPRMC,080909.000,A,2445.2015,S,05145.6945,W,0.00,,261013,,,A*7A
$GPRMC,080939.000,A,2445.2015,S,05145.6945,W,0.00,,261013,,,D*7C
$GPRMC,081009.000,A,2445.2015,S,05145.6945,W,0.00,,261013,,,D*77
$GPRMC,081039.000,A,2445.2015,S,05145.6945,W,0.00,,261013,,,D*74
$GPRMC,081109.000,A,2445.2015,S,05145.6945,W,0.00,,261013,,,D*76
$GPRMC,081139.000,A,2445.2015,S,05145.6945,W,0.00,,261013,,,D*75
$GPRMC,081219.000,A,2445.2005,S,05145.6940,W,0.00,,261013,,,A*75
$GPRMC,081249.000,A,2445.2005,S,05145.6940,W,0.00,,261013,,,A*70
$GPRMC,081319.000,A,2445.2005,S,05145.6940,W,0.00,,261013,,,A*74
$GPRMC,081347.000,A,2445.2005,S,05145.6940,W,0.00,,261013,,,A*7F
$GPRMC,081417.000,A,2445.2005,S,05145.6940,W,0.00,,261013,,,A*7D
$GPRMC,081447.000,A,2445.2005,S,05145.6940,W,0.00,,261013,,,A*78
$GPRMC,081524.000,A,2445.2021,S,05145.6958,W,0.00,,261013,,,A*73
$GPRMC,081554.000,A,2445.2021,S,05145.6958,W,0.00,,261013,,,A*74
$GPRMC,081624.000,A,2445.2021,S,05145.6958,W,0.00,,261013,,,A*70
$GPRMC,081654.000,A,2445.2021,S,05145.6958,W,0.00,,261013,,,A*77
$GPRMC,081724.000,A,2445.2021,S,05145.6958,W,0.00,,261013,,,A*71
$GPRMC,081754.000,A,2445.2021,S,05145.6958,W,0.00,,261013,,,A*76
$GPRMC,081832.000,A,2445.2042,S,05145.6978,W,0.00,,261013,,,A*7E
$GPRMC,081902.000,A,2445.2042,S,05145.6978,W,0.00,,261013,,,D*79
$GPRMC,081932.000,A,2445.2042,S,05145.6978,W,0.00,,261013,,,D*7A
$GPRMC,082002.000,A,2445.2042,S,05145.6978,W,0.00,,261013,,,D*73
$GPRMC,082032.000,A,2445.2042,S,05145.6978,W,0.00,,261013,,,D*70
$GPRMC,082102.000,A,2445.2042,S,05145.6978,W,0.00,,261013,,,D*72
$GPRMC,082141.000,A,2445.2001,S,05145.6976,W,0.00,,261013,,,A*79
$GPRMC,082211.000,A,2445.2001,S,05145.6976,W,0.00,,261013,,,A*7F
$GPRMC,082241.000,A,2445.2001,S,05145.6976,W,0.00,,261013,,,A*7A
$GPRMC,082311.000,A,2445.2001,S,05145.6976,W,0.00,,261013,,,A*7E
$GPRMC,082341.000,A,2445.2001,S,05145.6976,W,0.00,,261013,,,A*7B
$GPRMC,082411.000,A,2445.2001,S,05145.6976,W,0.00,,261013,,,A*79
$GPRMC,082452.000,A,2445.2028,S,05145.6968,W,0.00,,261013,,,A*7A
$GPRMC,082522.000,A,2445.2028,S,05145.6968,W,0.00,,261013,,,A*7C
$GPRMC,082552.000,A,2445.2028,S,05145.6968,W,0.00,,261013,,,A*7B
$GPRMC,082620.000,A,2445.2028,S,05145.6968,W,0.00,,261013,,,A*7D
$GPRMC,082650.000,A,2445.2028,S,05145.6968,W,0.00,,261013,,,A*7A
$GPRMC,082720.000,A,2445.2028,S,05145.6968,W,0.00,,261013,,,A*7C
$GPRMC,082800.000,A,2445.2021,S,05145.6994,W,0.00,,261013,,,A*7B
$GPRMC,082830.000,A,2445.2021,S,05145.6994,W,0.00,,261013,,,A*78
$GPRMC,082900.000,A,2445.2021,S,05145.6994,W,0.00,,261013,,,A*7A
$GPRMC,082930.000,A,2445.2021,S,05145.6994,W,0.00,,261013,,,A*79
$GPRMC,083000.000,A,2445.2021,S,05145.6994,W,0.00,,261013,,,A*72
$GPRMC,083030.000,A,2445.2021,S,05145.6994,W,0.00,,261013,,,A*71
$GPRMC,083109.000,A,2445.2022,S,05145.7023,W,0.00,,261013,,,A*7D
$GPRMC,083139.000,A,2445.2022,S,05145.7023,W,0.00,,261013,,,A*7E
$GPRMC,083209.000,A,2445.2022,S,05145.7023,W,0.00,,261013,,,D*7B
$GPRMC,083239.000,A,2445.2022,S,05145.7023,W,0.00,,261013,,,D*78
$GPRMC,083309.000,A,2445.2022,S,05145.7023,W,0.00,,261013,,,D*7A
$GPRMC,083339.000,A,2445.2022,S,05145.7023,W,0.00,,261013,,,D*79
$GPRMC,083417.000,A,2445.2026,S,05145.6956,W,0.00,,261013,,,A*79
$GPRMC,083447.000,A,2445.2026,S,05145.6956,W,0.00,,261013,,,A*7C
$GPRMC,083517.000,A,2445.2026,S,05145.6956,W,0.00,,261013,,,A*78
$GPRMC,083547.000,A,2445.2026,S,05145.6956,W,0.00,,261013,,,A*7D
$GPRMC,083617.000,A,2445.2026,S,05145.6956,W,0.00,,261013,,,A*7B
$GPRMC,083647.000,A,2445.2026,S,05145.6956,W,0.00,,261013,,,A*7E
$GPRMC,083728.000,A,2445.1987,S,05145.6969,W,0.00,,261013,,,A*7B
$GPRMC,083758.000,A,2445.1987,S,05145.6969,W,0.00,,261013,,,A*7C
$GPRMC,083828.000,A,2445.1987,S,05145.6969,W,0.00,,261013,,,A*74
$GPRMC,083856.000,A,2445.1987,S,05145.6969,W,0.00,,261013,,,A*7D
$GPRMC,083926.000,A,2445.1987,S,05145.6969,W,0.00,,261013,,,A*7B
$GPRMC,083956.000,A,2445.1987,S,05145.6969,W,0.00,,261013,,,A*7C
$GPRMC,084034.000,A,2445.2002,S,05145.6954,W,0.00,,261013,,,A*7F
$GPRMC,084104.000,A,2445.2002,S,05145.6954,W,0.00,,261013,,,A*7D
$GPRMC,084134.000,A,2445.2002,S,05145.6954,W,0.00,,261013,,,A*7E
$GPRMC,084204.000,A,2445.2002,S,05145.6954,W,0.00,,261013,,,A*7E
$GPRMC,084234.000,A,2445.2002,S,05145.6954,W,0.00,,261013,,,A*7D
$GPRMC,084304.000,A,2445.2002,S,05145.6954,W,0.00,,261013,,,A*7F
$GPRMC,084343.000,A,2445.2006,S,05145.6954,W,0.00,,261013,,,A*78
$GPRMC,084413.000,A,2445.2006,S,05145.6954,W,0.00,,261013,,,A*7A
$GPRMC,084443.000,A,2445.2006,S,05145.6954,W,0.00,,261013,,,A*7F
$GPRMC,084513.000,A,2445.2006,S,05145.6954,W,0.00,,261013,,,A*7B
$GPRMC,084543.000,A,2445.2006,S,05145.6954,W,0.00,,261013,,,A*7E
$GPRMC,084613.000,A,2445.2006,S,05145.6954,W,0.00,,261013,,,A*78
$GPRMC,084654.000,A,2445.2014,S,05145.6937,W,0.00,,261013,,,A*7D
$GPRMC,084724.000,A,2445.2014,S,05145.6937,W,0.00,,261013,,,A*7B
$GPRMC,084754.000,A,2445.2014,S,05145.6937,W,0.00,,261013,,,A*7C
$GPRMC,084824.000,A,2445.2014,S,05145.6937,W,0.00,,261013,,,A*74
$GPRMC,084854.000,A,2445.2014,S,05145.6937,W,0.00,,261013,,,A*73
$GPRMC,085000.000,A,2445.1981,S,05145.6915,W,0.00,,261013,,,A*7D
$GPRMC,085030.000,A,2445.1981,S,05145.6915,W,0.00,,261013,,,A*7E
$GPRMC,085100.000,A,2445.1981,S,05145.6915,W,0.00,,261013,,,A*7C
$GPRMC,085128.000,A,2445.1981,S,05145.6915,W,0.00,,261013,,,A*76
$GPRMC,085158.000,A,2445.1981,S,05145.6915,W,0.00,,261013,,,A*71
$GPRMC,085228.000,A,2445.1981,S,05145.6915,W,0.00,,261013,,,D*70
$GPRMC,085307.000,A,2445.1975,S,05145.6955,W,0.00,,261013,,,A*76
$GPRMC,085337.000,A,2445.1975,S,05145.6955,W,0.00,,261013,,,A*75
$GPRMC,085407.000,A,2445.1975,S,05145.6955,W,0.00,,261013,,,A*71
$GPRMC,085437.000,A,2445.1975,S,05145.6955,W,0.00,,261013,,,A*72
$GPRMC,085507.000,A,2445.1975,S,05145.6955,W,0.00,,261013,,,A*70
$GPRMC,085537.000,A,2445.1975,S,05145.6955,W,0.00,,261013,,,A*73
$GPRMC,085615.000,A,2445.2001,S,05145.6968,W,0.00,,261013,,,A*77
$GPRMC,085645.000,A,2445.2001,S,05145.6968,W,0.00,,261013,,,A*72
$GPRMC,085715.000,A,2445.2001,S,05145.6968,W,0.00,,261013,,,A*76
$GPRMC,085745.000,A,2445.2001,S,05145.6968,W,0.00,,261013,,,A*73
$GPRMC,085815.000,A,2445.2001,S,05145.6968,W,0.00,,261013,,,D*7C
$GPRMC,085845.000,A,2445.2001,S,05145.6968,W,0.00,,261013,,,D*79
$GPRMC,085924.000,A,2445.1970,S,05145.6991,W,0.00,,261013,,,A*70
$GPRMC,085954.000,A,2445.1970,S,05145.6991,W,0.00,,261013,,,A*77
$GPRMC,090024.000,A,2445.1970,S,05145.6991,W,0.00,,261013,,,A*7D
$GPRMC,090054.000,A,2445.1970,S,05145.6991,W,0.00,,261013,,,A*7A
$GPRMC,090124.000,A,2445.1970,S,05145.6991,W,0.00,,261013,,,A*7C
$GPRMC,090154.000,A,2445.1970,S,05145.6991,W,0.00,,261013,,,A*7B
$GPRMC,090234.000,A,2445.1997,S,05145.6989,W,0.00,,261013,,,A*7E
$GPRMC,090304.000,A,2445.1997,S,05145.6989,W,0.00,,261013,,,A*7C
$GPRMC,090334.000,A,2445.1997,S,05145.6989,W,0.00,,261013,,,A*7F
$GPRMC,090402.000,A,2445.1997,S,05145.6989,W,0.00,,261013,,,D*78
$GPRMC,090432.000,A,2445.1997,S,05145.6989,W,0.00,,261013,,,D*7B
$GPRMC,090502.000,A,2445.1997,S,05145.6989,W,0.00,,261013,,,D*79
$GPRMC,090541.000,A,2445.1993,S,05145.6968,W,0.00,,261013,,,A*70
$GPRMC,090611.000,A,2445.1993,S,05145.6968,W,0.00,,261013,,,A*76
$GPRMC,090641.000,A,2445.1993,S,05145.6968,W,0.00,,261013,,,A*73
$GPRMC,090711.000,A,2445.1993,S,05145.6968,W,0.00,,261013,,,A*77
$GPRMC,090741.000,A,2445.1993,S,05145.6968,W,0.00,,261013,,,A*72
$GPRMC,090811.000,A,2445.1993,S,05145.6968,W,0.00,,261013,,,D*7D
$GPRMC,090850.000,A,2445.2003,S,05145.6937,W,0.00,,261013,,,A*74
$GPRMC,090920.000,A,2445.2003,S,05145.6937,W,0.00,,261013,,,A*72
$GPRMC,090950.000,A,2445.2003,S,05145.6937,W,0.00,,261013,,,A*75
$GPRMC,091020.000,A,2445.2003,S,05145.6937,W,0.00,,261013,,,A*7A
$GPRMC,091050.000,A,2445.2003,S,05145.6937,W,0.00,,261013,,,A*7D
$GPRMC,091120.000,A,2445.2003,S,05145.6937,W,0.00,,261013,,,A*7B
$GPRMC,091158.000,A,2445.2043,S,05145.6948,W,0.00,,261013,,,A*78
$GPRMC,091228.000,A,2445.2043,S,05145.6948,W,0.00,,261013,,,A*7C
$GPRMC,091258.000,A,2445.2043,S,05145.6948,W,0.00,,261013,,,A*7B
$GPRMC,091328.000,A,2445.2043,S,05145.6948,W,0.00,,261013,,,A*7D
$GPRMC,091358.000,A,2445.2043,S,05145.6948,W,0.00,,261013,,,A*7A
$GPRMC,091428.000,A,2445.2043,S,05145.6948,W,0.00,,261013,,,A*7A
$GPRMC,091507.000,A,2445.1985,S,05145.6977,W,0.00,,261013,,,A*7A
$GPRMC,091537.000,A,2445.1985,S,05145.6977,W,0.00,,261013,,,A*79
$GPRMC,091607.000,A,2445.1985,S,05145.6977,W,0.00,,261013,,,A*79
$GPRMC,091637.000,A,2445.1985,S,05145.6977,W,0.00,,261013,,,A*7A
$GPRMC,091707.000,A,2445.1985,S,05145.6977,W,0.00,,261013,,,A*78
$GPRMC,091737.000,A,2445.1985,S,05145.6977,W,0.00,,261013,,,A*7B
$GPRMC,091817.000,A,2445.1988,S,05145.6988,W,0.00,,261013,,,A*7B
$GPRMC,091847.000,A,2445.1988,S,05145.6988,W,0.00,,261013,,,A*7E
$GPRMC,091917.000,A,2445.1988,S,05145.6988,W,0.00,,261013,,,A*7A
$GPRMC,091947.000,A,2445.1988,S,05145.6988,W,0.00,,261013,,,A*7F
$GPRMC,092017.000,A,2445.1988,S,05145.6988,W,0.00,,261013,,,A*70
$GPRMC,092047.000,A,2445.1988,S,05145.6988,W,0.00,,261013,,,A*75
$GPRMC,092124.000,A,2445.1931,S,05145.7061,W,0.00,,261013,,,A*7C
$GPRMC,092154.000,A,2445.1931,S,05145.7061,W,0.00,,261013,,,A*7B
$GPRMC,092224.000,A,2445.1931,S,05145.7061,W,0.00,,261013,,,A*7F
$GPRMC,092254.000,A,2445.1931,S,05145.7061,W,0.00,,261013,,,A*78
$GPRMC,092324.000,A,2445.1931,S,05145.7061,W,0.00,,261013,,,A*7E
$GPRMC,092354.000,A,2445.1931,S,05145.7061,W,0.00,,261013,,,A*79
$GPRMC,092434.000,A,2445.1982,S,05145.6978,W,0.00,,261013,,,A*70
$GPRMC,092504.000,A,2445.1982,S,05145.6978,W,0.00,,261013,,,A*72
$GPRMC,092534.000,A,2445.1982,S,05145.6978,W,0.00,,261013,,,D*74
$GPRMC,092604.000,A,2445.1982,S,05145.6978,W,0.00,,261013,,,D*74
$GPRMC,092634.000,A,2445.1982,S,05145.6978,W,0.00,,261013,,,D*77
$GPRMC,092704.000,A,2445.1982,S,05145.6978,W,0.00,,261013,,,D*75
$GPRMC,092743.000,A,2445.2030,S,05145.6962,W,0.00,,261013,,,A*7B
$GPRMC,092813.000,A,2445.2030,S,05145.6962,W,0.00,,261013,,,A*71
$GPRMC,092841.000,A,2445.2030,S,05145.6962,W,0.00,,261013,,,A*76
$GPRMC,092911.000,A,2445.2030,S,05145.6962,W,0.00,,261013,,,D*77
$GPRMC,092941.000,A,2445.2030,S,05145.6962,W,0.00,,261013,,,D*72
$GPRMC,093011.000,A,2445.2030,S,05145.6962,W,0.00,,261013,,,D*7F
$GPRMC,093052.000,A,2445.2075,S,05145.6944,W,0.00,,261013,,,A*78
$GPRMC,093122.000,A,2445.2075,S,05145.6944,W,0.00,,261013,,,A*7E
$GPRMC,093152.000,A,2445.2075,S,05145.6944,W,0.00,,261013,,,A*79
$GPRMC,093222.000,A,2445.2075,S,05145.6944,W,0.00,,261013,,,A*7D
$GPRMC,093252.000,A,2445.2075,S,05145.6944,W,0.00,,261013,,,A*7A
$GPRMC,093402.000,A,2445.1995,S,05145.6935,W,0.00,,261013,,,A*7B
$GPRMC,093432.000,A,2445.1995,S,05145.6935,W,0.00,,261013,,,A*78
$GPRMC,093502.000,A,2445.1995,S,05145.6935,W,0.00,,261013,,,A*7A
$GPRMC,093532.000,A,2445.1995,S,05145.6935,W,0.00,,261013,,,A*79
$GPRMC,093602.000,A,2445.1995,S,05145.6935,W,0.00,,261013,,,A*79
$GPRMC,093711.000,A,2445.2016,S,05145.6947,W,0.00,,261013,,,A*7E
$GPRMC,093741.000,A,2445.2016,S,05145.6947,W,0.00,,261013,,,A*7B
$GPRMC,093811.000,A,2445.2016,S,05145.6947,W,0.00,,261013,,,A*71
$GPRMC,093841.000,A,2445.2016,S,05145.6947,W,0.00,,261013,,,A*74
$GPRMC,093911.000,A,2445.2016,S,05145.6947,W,0.00,,261013,,,A*70
$GPRMC,093941.000,A,2445.2016,S,05145.6947,W,0.00,,261013,,,A*75
$GPRMC,094017.000,A,2445.2047,S,05145.7049,W,0.00,,261013,,,A*7A
$GPRMC,094047.000,A,2445.2047,S,05145.7049,W,0.00,,261013,,,A*7F
$GPRMC,094115.000,A,2445.2047,S,05145.7049,W,0.00,,261013,,,A*79
$GPRMC,094145.000,A,2445.2047,S,05145.7049,W,0.00,,261013,,,A*7C
$GPRMC,094215.000,A,2445.2047,S,05145.7049,W,0.00,,261013,,,A*7A
$GPRMC,094245.000,A,2445.2047,S,05145.7049,W,0.00,,261013,,,A*7F
$GPRMC,094328.000,A,2445.2018,S,05145.6947,W,0.00,,261013,,,A*79
$GPRMC,094358.000,A,2445.2018,S,05145.6947,W,0.00,,261013,,,A*7E
$GPRMC,094428.000,A,2445.2018,S,05145.6947,W,0.00,,261013,,,A*7E
$GPRMC,094458.000,A,2445.2018,S,05145.6947,W,0.00,,261013,,,A*79
$GPRMC,094528.000,A,2445.2018,S,05145.6947,W,0.00,,261013,,,A*7F
$GPRMC,094558.000,A,2445.2018,S,05145.6947,W,0.00,,261013,,,A*78
$GPRMC,094634.000,A,2445.1986,S,05145.6954,W,0.00,,261013,,,A*7E
$GPRMC,094704.000,A,2445.1986,S,05145.6954,W,0.00,,261013,,,A*7C
$GPRMC,094734.000,A,2445.1986,S,05145.6954,W,0.00,,261013,,,A*7F
$GPRMC,094804.000,A,2445.1986,S,05145.6954,W,0.00,,261013,,,A*73
$GPRMC,094834.000,A,2445.1986,S,05145.6954,W,0.00,,261013,,,A*70
$GPRMC,094904.000,A,2445.1986,S,05145.6954,W,0.00,,261013,,,A*72
$GPRMC,094943.000,A,2445.2016,S,05145.6924,W,0.00,,261013,,,A*75
$GPRMC,095013.000,A,2445.2016,S,05145.6924,W,0.00,,261013,,,A*78
$GPRMC,095043.000,A,2445.2016,S,05145.6924,W,0.00,,261013,,,A*7D
$GPRMC,095113.000,A,2445.2016,S,05145.6924,W,0.00,,261013,,,A*79
$GPRMC,095143.000,A,2445.2016,S,05145.6924,W,0.00,,261013,,,A*7C
$GPRMC,095213.000,A,2445.2016,S,05145.6924,W,0.00,,261013,,,A*7A
$GPRMC,095252.000,A,2445.1986,S,05145.6953,W,0.00,,261013,,,A*7C
$GPRMC,095322.000,A,2445.1986,S,05145.6953,W,0.00,,261013,,,A*7A
$GPRMC,095350.000,A,2445.1986,S,05145.6953,W,0.00,,261013,,,A*7F
$GPRMC,095420.000,A,2445.1986,S,05145.6953,W,0.00,,261013,,,A*7F
$GPRMC,095450.000,A,2445.1986,S,05145.6953,W,0.00,,261013,,,A*78
$GPRMC,095520.000,A,2445.1986,S,05145.6953,W,0.00,,261013,,,A*7E
$GPRMC,095600.000,A,2445.1987,S,05145.7004,W,0.00,,261013,,,A*74
$GPRMC,095630.000,A,2445.1987,S,05145.7004,W,0.00,,261013,,,A*77
$GPRMC,095700.000,A,2445.1987,S,05145.7004,W,0.00,,261013,,,A*75
$GPRMC,095730.000,A,2445.1987,S,05145.7004,W,0.00,,261013,,,A*76
$GPRMC,095800.000,A,2445.1987,S,05145.7004,W,0.00,,261013,,,D*7F
$GPRMC,095830.000,A,2445.1987,S,05145.7004,W,0.00,,261013,,,D*7C
$GPRMC,095909.000,A,2445.1993,S,05145.6951,W,0.00,,261013,,,A*7F
$GPRMC,095939.000,A,2445.1993,S,05145.6951,W,0.00,,261013,,,A*7C
$GPRMC,100009.000,A,2445.1993,S,05145.6951,W,0.00,,261013,,,A*7B
$GPRMC,100039.000,A,2445.1993,S,05145.6951,W,0.00,,261013,,,A*78
$GPRMC,100109.000,A,2445.1993,S,05145.6951,W,0.00,,261013,,,A*7A
$GPRMC,100139.000,A,2445.1993,S,05145.6951,W,0.00,,261013,,,A*79
$GPRMC,100217.000,A,2445.2034,S,05145.6948,W,0.00,,261013,,,A*79
$GPRMC,100247.000,A,2445.2034,S,05145.6948,W,0.00,,261013,,,A*7C
$GPRMC,100317.000,A,2445.2034,S,05145.6948,W,0.00,,261013,,,A*78
$GPRMC,100347.000,A,2445.2034,S,05145.6948,W,0.00,,261013,,,A*7D
$GPRMC,100417.000,A,2445.2034,S,05145.6948,W,0.00,,261013,,,A*7F
$GPRMC,100447.000,A,2445.2034,S,05145.6948,W,0.00,,261013,,,A*7A
$GPRMC,100528.000,A,2445.1982,S,05145.6963,W,0.00,,261013,,,A*7C
$GPRMC,100558.000,A,2445.1982,S,05145.6963,W,0.00,,261013,,,A*7B
$GPRMC,100626.000,A,2445.1982,S,05145.6963,W,0.00,,261013,,,A*71
$GPRMC,100656.000,A,2445.1982,S,05145.6963,W,0.00,,261013,,,A*76
$GPRMC,100726.000,A,2445.1982,S,05145.6963,W,0.00,,261013,,,A*70
$GPRMC,100756.000,A,2445.1982,S,05145.6963,W,0.00,,261013,,,A*77
$GPRMC,100837.000,A,2445.2051,S,05145.7166,W,0.00,,261013,,,A*77
$GPRMC,100907.000,A,2445.2051,S,05145.7166,W,0.00,,261013,,,A*75
$GPRMC,100937.000,A,2445.2051,S,05145.7166,W,0.00,,261013,,,A*76
$GPRMC,101007.000,A,2445.2051,S,05145.7166,W,0.00,,261013,,,D*78
$GPRMC,101037.000,A,2445.2051,S,05145.7166,W,0.00,,261013,,,D*7B
$GPRMC,101145.000,A,2445.1907,S,05145.6977,W,0.00,,261013,,,A*7A
$GPRMC,101215.000,A,2445.1907,S,05145.6977,W,0.00,,261013,,,A*7C
$GPRMC,101245.000,A,2445.1907,S,05145.6977,W,0.00,,261013,,,A*79
$GPRMC,101315.000,A,2445.1907,S,05145.6977,W,0.00,,261013,,,A*7D
$GPRMC,101345.000,A,2445.1907,S,05145.6977,W,0.00,,261013,,,A*78
$GPRMC,101415.000,A,2445.1907,S,05145.6977,W,0.00,,261013,,,A*7A
$GPRMC,101454.000,A,2445.2031,S,05145.6946,W,0.00,,261013,,,A*72
$GPRMC,101524.000,A,2445.2031,S,05145.6946,W,0.00,,261013,,,A*74
$GPRMC,101554.000,A,2445.2031,S,05145.6946,W,0.00,,261013,,,A*73
$GPRMC,101624.000,A,2445.2031,S,05145.6946,W,0.00,,261013,,,A*77
$GPRMC,101654.000,A,2445.2031,S,05145.6946,W,0.00,,261013,,,A*70
$GPRMC,101724.000,A,2445.2031,S,05145.6946,W,0.00,,261013,,,A*76
$GPRMC,101802.000,A,2445.2028,S,05145.6960,W,0.00,,261013,,,A*71
$GPRMC,101832.000,A,2445.2028,S,05145.6960,W,0.00,,261013,,,A*72
$GPRMC,101900.000,A,2445.2028,S,05145.6960,W,0.00,,261013,,,A*72
$GPRMC,101930.000,A,2445.2028,S,05145.6960,W,0.00,,261013,,,D*74
$GPRMC,102000.000,A,2445.2028,S,05145.6960,W,0.00,,261013,,,A*78
$GPRMC,102030.000,A,2445.2028,S,05145.6960,W,0.00,,261013,,,A*7B
$GPRMC,102109.000,A,2445.2045,S,05145.6994,W,0.00,,261013,,,A*70
$GPRMC,102139.000,A,2445.2045,S,05145.6994,W,0.00,,261013,,,A*73
$GPRMC,102209.000,A,2445.2045,S,05145.6994,W,0.00,,261013,,,A*73
$GPRMC,102239.000,A,2445.2045,S,05145.6994,W,0.00,,261013,,,A*70
$GPRMC,102309.000,A,2445.2045,S,05145.6994,W,0.00,,261013,,,A*72
$GPRMC,102339.000,A,2445.2045,S,05145.6994,W,0.00,,261013,,,D*74
$GPRMC,102417.000,A,2445.2001,S,05145.6967,W,0.00,,261013,,,A*76
$GPRMC,102447.000,A,2445.2001,S,05145.6967,W,0.00,,261013,,,A*73
$GPRMC,102517.000,A,2445.2001,S,05145.6967,W,0.00,,261013,,,A*77
$GPRMC,102547.000,A,2445.2001,S,05145.6967,W,0.00,,261013,,,A*72
$GPRMC,102617.000,A,2445.2001,S,05145.6967,W,0.00,,261013,,,A*74
$GPRMC,102647.000,A,2445.2001,S,05145.6967,W,0.00,,261013,,,A*71
$GPRMC,102728.000,A,2445.2092,S,05145.7120,W,0.00,,261013,,,A*79
$GPRMC,102758.000,A,2445.2092,S,05145.7120,W,0.00,,261013,,,A*7E
$GPRMC,102828.000,A,2445.2092,S,05145.7120,W,0.00,,261013,,,A*76
$GPRMC,102858.000,A,2445.2092,S,05145.7120,W,0.00,,261013,,,A*71
$GPRMC,102928.000,A,2445.2092,S,05145.7120,W,0.00,,261013,,,A*77
$GPRMC,102958.000,A,2445.2092,S,05145.7120,W,0.00,,261013,,,A*70
$GPRMC,103035.000,A,2445.1898,S,05145.6940,W,0.00,,261013,,,A*7D
$GPRMC,103105.000,A,2445.1898,S,05145.6940,W,0.00,,261013,,,A*7F
$GPRMC,103133.000,A,2445.1898,S,05145.6940,W,0.00,,261013,,,A*7A
$GPRMC,103203.000,A,2445.1898,S,05145.6940,W,0.00,,261013,,,A*7A
$GPRMC,103233.000,A,2445.1898,S,05145.6940,W,0.00,,261013,,,A*79
$GPRMC,103303.000,A,2445.1898,S,05145.6940,W,0.00,,261013,,,A*7B
$GPRMC,103343.000,A,2445.1952,S,05145.6965,W,0.00,,261013,,,A*7F
$GPRMC,103413.000,A,2445.1952,S,05145.6965,W,0.00,,261013,,,A*7D
$GPRMC,103443.000,A,2445.1952,S,05145.6965,W,0.00,,261013,,,A*78
$GPRMC,103513.000,A,2445.1952,S,05145.6965,W,0.00,,261013,,,A*7C
$GPRMC,103543.000,A,2445.1952,S,05145.6965,W,0.00,,261013,,,D*7C
$GPRMC,103613.000,A,2445.1952,S,05145.6965,W,0.00,,261013,,,A*7F
$GPRMC,103654.000,A,2445.2043,S,05145.6975,W,0.00,,261013,,,A*77
$GPRMC,103724.000,A,2445.2043,S,05145.6975,W,0.00,,261013,,,A*71
$GPRMC,103754.000,A,2445.2043,S,05145.6975,W,0.00,,261013,,,A*76
$GPRMC,103824.000,A,2445.2043,S,05145.6975,W,0.00,,261013,,,A*7E
$GPRMC,103854.000,A,2445.2043,S,05145.6975,W,0.00,,261013,,,A*79
$GPRMC,104000.000,A,2445.2016,S,05145.6984,W,0.00,,261013,,,A*79
$GPRMC,104030.000,A,2445.2016,S,05145.6984,W,0.00,,261013,,,A*7A
$GPRMC,104100.000,A,2445.2016,S,05145.6984,W,0.00,,261013,,,A*78
$GPRMC,104130.000,A,2445.2016,S,05145.6984,W,0.00,,261013,,,A*7B
$GPRMC,104200.000,A,2445.2016,S,05145.6984,W,0.00,,261013,,,A*7B
$GPRMC,104230.000,A,2445.2016,S,05145.6984,W,0.00,,261013,,,A*78
$GPRMC,104311.000,A,2445.1963,S,05145.6959,W,0.00,,261013,,,A*72
$GPRMC,104339.000,A,2445.1963,S,05145.6959,W,0.00,,261013,,,A*78
$GPRMC,104409.000,A,2445.1963,S,05145.6959,W,0.00,,261013,,,A*7C
$GPRMC,104439.000,A,2445.1963,S,05145.6959,W,0.00,,261013,,,D*7A
$GPRMC,104509.000,A,2445.1963,S,05145.6959,W,0.00,,261013,,,D*78
$GPRMC,104539.000,A,2445.1963,S,05145.6959,W,0.00,,261013,,,D*7B
$GPRMC,104619.000,A,2445.2062,S,05145.7055,W,0.00,,261013,,,A*70
$GPRMC,104649.000,A,2445.2062,S,05145.7055,W,0.00,,261013,,,A*75
$GPRMC,104719.000,A,2445.2062,S,05145.7055,W,0.00,,261013,,,A*71
$GPRMC,104749.000,A,2445.2062,S,05145.7055,W,0.00,,261013,,,A*74
$GPRMC,104819.000,A,2445.2062,S,05145.7055,W,0.00,,261013,,,A*7E
$GPRMC,104849.000,A,2445.2062,S,05145.7055,W,0.00,,261013,,,A*7B
$GPRMC,104926.000,A,2445.2031,S,05145.6990,W,0.00,,261013,,,A*74
$GPRMC,104956.000,A,2445.2031,S,05145.6990,W,0.00,,261013,,,A*73
$GPRMC,105026.000,A,2445.2031,S,05145.6990,W,0.00,,261013,,,A*7C
$GPRMC,105056.000,A,2445.2031,S,05145.6990,W,0.00,,261013,,,A*7B
$GPRMC,105126.000,A,2445.2031,S,05145.6990,W,0.00,,261013,,,A*7D
$GPRMC,105156.000,A,2445.2031,S,05145.6990,W,0.00,,261013,,,A*7A
$GPRMC,105235.000,A,2445.2045,S,05145.7001,W,0.00,,261013,,,A*7F
$GPRMC,105305.000,A,2445.2045,S,05145.7001,W,0.00,,261013,,,A*7D
$GPRMC,105335.000,A,2445.2045,S,05145.7001,W,0.00,,261013,,,A*7E
$GPRMC,105405.000,A,2445.2045,S,05145.7001,W,0.00,,261013,,,A*7A
$GPRMC,105435.000,A,2445.2045,S,05145.7001,W,0.00,,261013,,,A*79
$GPRMC,105505.000,A,2445.2045,S,05145.7001,W,0.00,,261013,,,A*7B
$GPRMC,105545.000,A,2445.1958,S,05145.6920,W,0.00,,261013,,,A*72
$GPRMC,105613.000,A,2445.1958,S,05145.6920,W,0.00,,261013,,,A*72
$GPRMC,105643.000,A,2445.1958,S,05145.6920,W,0.00,,261013,,,A*77
$GPRMC,105713.000,A,2445.1958,S,05145.6920,W,0.00,,261013,,,A*73
$GPRMC,105743.000,A,2445.1958,S,05145.6920,W,0.00,,261013,,,A*76
$GPRMC,105813.000,A,2445.1958,S,05145.6920,W,0.00,,261013,,,A*7C
$GPRMC,105852.000,A,2445.2058,S,05145.7091,W,0.00,,261013,,,A*71
$GPRMC,105922.000,A,2445.2058,S,05145.7091,W,0.00,,261013,,,A*77
$GPRMC,105952.000,A,2445.2058,S,05145.7091,W,0.00,,261013,,,A*70
$GPRMC,110022.000,A,2445.2058,S,05145.7091,W,0.00,,261013,,,A*7A
$GPRMC,110052.000,A,2445.2058,S,05145.7091,W,0.00,,261013,,,A*7D
$GPRMC,110122.000,A,2445.2058,S,05145.7091,W,0.00,,261013,,,A*7B
$GPRMC,110202.000,A,2445.2003,S,05145.6995,W,0.00,,261013,,,A*78
$GPRMC,110232.000,A,2445.2003,S,05145.6995,W,0.00,,261013,,,A*7B
